{
  "nyc": {
    "lat": 40.7772,
    "lon": -73.8726,
    "name": "New York City",
    "station": "KLGA",
    "unit": "F",
    "region": "us"
  },
  "chicago": {
    "lat": 41.9742,
    "lon": -87.9073,
    "name": "Chicago",
    "station": "KORD",
    "unit": "F",
    "region": "us"
  },
  "miami": {
    "lat": 25.7959,
    "lon": -80.287,
    "name": "Miami",
    "station": "KMIA",
    "unit": "F",
    "region": "us"
  },
  "dallas": {
    "lat": 32.8471,
    "lon": -96.8518,
    "name": "Dallas",
    "station": "KDAL",
    "unit": "F",
    "region": "us"
  },
  "seattle": {
    "lat": 47.4502,
    "lon": -122.3088,
    "name": "Seattle",
    "station": "KSEA",
    "unit": "F",
    "region": "us"
  },
  "atlanta": {
    "lat": 33.6407,
    "lon": -84.4277,
    "name": "Atlanta",
    "station": "KATL",
    "unit": "F",
    "region": "us"
  },
  "london": {
    "lat": 51.5048,
    "lon": 0.0495,
    "name": "London",
    "station": "EGLC",
    "unit": "C",
    "region": "eu"
  },
  "paris": {
    "lat": 48.9962,
    "lon": 2.5979,
    "name": "Paris",
    "station": "LFPG",
    "unit": "C",
    "region": "eu"
  },
  "munich": {
    "lat": 48.3537,
    "lon": 11.775,
    "name": "Munich",
    "station": "EDDM",
    "unit": "C",
    "region": "eu"
  },
  "ankara": {
    "lat": 40.1281,
    "lon": 32.9951,
    "name": "Ankara",
    "station": "LTAC",
    "unit": "C",
    "region": "eu"
  },
  "seoul": {
    "lat": 37.4691,
    "lon": 126.4505,
    "name": "Seoul",
    "station": "RKSI",
    "unit": "C",
    "region": "asia"
  },
  "tokyo": {
    "lat": 35.7647,
    "lon": 140.3864,
    "name": "Tokyo",
    "station": "RJTT",
    "unit": "C",
    "region": "asia"
  },
  "shanghai": {
    "lat": 31.1443,
    "lon": 121.8083,
    "name": "Shanghai",
    "station": "ZSPD",
    "unit": "C",
    "region": "asia"
  },
  "singapore": {
    "lat": 1.3502,
    "lon": 103.994,
    "name": "Singapore",
    "station": "WSSS",
    "unit": "C",
    "region": "asia"
  },
  "lucknow": {
    "lat": 26.7606,
    "lon": 80.8893,
    "name": "Lucknow",
    "station": "VILK",
    "unit": "C",
    "region": "asia"
  },
  "tel-aviv": {
    "lat": 32.0114,
    "lon": 34.8867,
    "name": "Tel Aviv",
    "station": "LLBG",
    "unit": "C",
    "region": "asia"
  },
  "hong-kong": {
    "lat": 22.308,
    "lon": 113.9185,
    "name": "Hong Kong",
    "station": "VHHH",
    "unit": "C",
    "region": "asia"
  },
  "taipei": {
    "lat": 25.0797,
    "lon": 121.2342,
    "name": "Taipei",
    "station": "RCTP",
    "unit": "C",
    "region": "asia"
  },
  "toronto": {
    "lat": 43.6772,
    "lon": -79.6306,
    "name": "Toronto",
    "station": "CYYZ",
    "unit": "C",
    "region": "ca"
  },
  "sao-paulo": {
    "lat": -23.4356,
    "lon": -46.4731,
    "name": "Sao Paulo",
    "station": "SBGR",
    "unit": "C",
    "region": "sa"
  },
  "buenos-aires": {
    "lat": -34.8222,
    "lon": -58.5358,
    "name": "Buenos Aires",
    "station": "SAEZ",
    "unit": "C",
    "region": "sa"
  },
  "wellington": {
    "lat": -41.3272,
    "lon": 174.8052,
    "name": "Wellington",
    "station": "NZWN",
    "unit": "C",
    "region": "oc"
  }
}